time,x,y,z,vx,vy,vz,roll,pitch,yaw,M_pitch,Fx,Fy,Fz,portance,trainee,traction,Cl,Cd,Cm,speed,AoA_deg
0.1,28.5,0,11000,285,0,-4.45859e-007,0,0.02618,0,40.3273,0,0,0,0,0,0,0.257325,0.0211419,1.14337e-006,285,1.5
0.2,57,0,11000,285,0,-8.91718e-008,0,0.0261801,0,38.8163,0,0,0,0,0,0,0.257325,0.0211419,1.10053e-006,285,1.50001
0.3,85.5,0,11000,285,0,1.78344e-006,0,0.0261802,0,35.9913,0,0,0,0,0,0,0.257325,0.0211419,1.02043e-006,285,1.50001
0.4,114,0,11000,285,0,5.88534e-006,0,0.0261803,0,31.9838,0,0,0,0,0,0,0.257326,0.0211419,9.0681e-007,285,1.50002
0.5,142.5,0,11000,285,0,1.25732e-005,0,0.0261805,0,27.188,0,0,0,0,0,0,0.257326,0.0211419,7.70837e-007,285,1.50003
0.6,171,0,11000,285,0,2.21146e-005,0,0.0261807,0,21.7351,0,0,0,0,0,0,0.257327,0.021142,6.16238e-007,285,1.50004
0.7,199.5,0,11000,285,0,3.49553e-005,0,0.0261809,0,15.8224,0,0,0,0,0,0,0.257328,0.021142,4.48599e-007,285,1.50006
0.8,228,0,11000,285,0,5.10954e-005,0,0.0261812,0,9.71262,0,0,0,0,0,0,0.257329,0.021142,2.75373e-007,285,1.50007
0.9,256.5,0,11000,285,0,7.03565e-005,0,0.0261814,0,3.66851,0,0,0,0,0,0,0.25733,0.021142,1.0401e-007,285,1.50008
1,285,0,11000,285,0,9.28278e-005,0,0.0261816,0,-2.04711,0,0,0,0,0,0,0.257331,0.021142,-5.804e-008,285,1.5001
1.1,313.5,0,11000,285,0,0.000118153,0,0.0261818,0,-7.36855,0,0,0,0,0,0,0.257331,0.0211421,-2.08914e-007,285,1.50011
1.2,342,0,11000,285,0,0.000145974,0,0.026182,0,-12.033,0,0,0,0,0,0,0.257332,0.0211421,-3.41162e-007,285,1.50012
1.3,370.5,0,11000,285,0,0.000175936,0,0.0261822,0,-16.0405,0,0,0,0,0,0,0.257333,0.0211421,-4.54783e-007,285,1.50013
1.4,399,0,11000,285,0,0.000207592,0,0.0261824,0,-19.194,0,0,0,0,0,0,0.257333,0.0211421,-5.4419e-007,285,1.50014
1.5,427.5,0,11000,285,0,0.000240407,0,0.0261826,0,-21.362,0,0,0,0,0,0,0.257333,0.0211421,-6.05658e-007,285,1.50015
1.6,456,0,11000,285,0,0.000273936,0,0.0261827,0,-22.6102,0,0,0,0,0,0,0.257333,0.0211421,-6.41048e-007,285,1.50016
1.7,484.5,0,11000,285,0,0.000307643,0,0.0261828,0,-23.0044,0,0,0,0,0,0,0.257334,0.0211421,-6.52224e-007,285,1.50016
1.8,513,0,11000,285,0,0.000341171,0,0.0261829,0,-22.4788,0,0,0,0,0,0,0.257333,0.0211421,-6.37323e-007,285,1.50017
1.9,541.5,0,11000,285,0,0.000373986,0,0.0261829,0,-21.2306,0,0,0,0,0,0,0.257333,0.0211421,-6.01932e-007,285,1.50017
2,570,0,11000,285,0,0.000405821,0,0.026183,0,-19.3254,0,0,0,0,0,0,0.257333,0.0211421,-5.47916e-007,285,1.50017
2.1,598.5,0,11000,285,0,0.000436228,0,0.026183,0,-16.7632,0,0,0,0,0,0,0.257333,0.0211421,-4.75273e-007,285,1.50017
2.2,627,0,11000,285,0,0.000464942,0,0.026183,0,-13.7411,0,0,0,0,0,0,0.257332,0.0211421,-3.89591e-007,285,1.50017
2.3,655.5,0,11000,285,0,0.000491961,0,0.026183,0,-10.4563,0,0,0,0,0,0,0.257332,0.0211421,-2.96459e-007,285,1.50017
2.4,684,0,11000,285,0,0.000517018,0,0.026183,0,-7.04007,0,0,0,0,0,0,0.257331,0.0211421,-1.99601e-007,285,1.50017
2.5,712.5,0,11000,285,0,0.000540292,0,0.026183,0,-3.62384,0,0,0,0,0,0,0.257331,0.0211421,-1.02744e-007,285,1.50017
2.6,741,0,11000,285,0,0.000561782,0,0.026183,0,-0.273299,0,0,0,0,0,0,0.25733,0.021142,-7.7486e-009,285,1.50017
2.7,769.5,0,11000,285,0,0.000581489,0,0.026183,0,2.81445,0,0,0,0,0,0,0.25733,0.021142,7.97957e-008,285,1.50017
2.8,798,0,11000,285,0,0.000599769,0,0.026183,0,5.63941,0,0,0,0,0,0,0.257329,0.021142,1.59889e-007,285,1.50017
2.9,826.5,0,11000,285,0,0.000616712,0,0.026183,0,8.13589,0,0,0,0,0,0,0.257329,0.021142,2.3067e-007,285,1.50017
3,855,0,11000,285,0,0.000632585,0,0.026183,0,10.1068,0,0,0,0,0,0,0.257329,0.021142,2.86549e-007,285,1.50017
3.1,883.5,0,11000,285,0,0.000647655,0,0.026183,0,11.6178,0,0,0,0,0,0,0.257329,0.021142,3.2939e-007,285,1.50017
3.2,912,0,11000,285,0,0.00066219,0,0.026183,0,12.5376,0,0,0,0,0,0,0.257329,0.021142,3.55467e-007,285,1.50018
3.3,940.5,0,11000,285,0,0.000676457,0,0.0261831,0,12.9318,0,0,0,0,0,0,0.257328,0.021142,3.66643e-007,285,1.50018
3.4,969,0,11000,285,0,0.000690903,0,0.0261832,0,12.8661,0,0,0,0,0,0,0.257328,0.021142,3.6478e-007,285,1.50018
3.5,997.5,0,11000,285,0,0.000705527,0,0.0261832,0,12.3405,0,0,0,0,0,0,0.257329,0.021142,3.49879e-007,285,1.50019
3.6,1026,0,11000,285,0,0.000720775,0,0.0261833,0,11.4207,0,0,0,0,0,0,0.257329,0.021142,3.23802e-007,285,1.50019
3.7,1054.5,0,11000,285,0,0.000736559,0,0.0261834,0,10.1725,0,0,0,0,0,0,0.257329,0.021142,2.88412e-007,285,1.5002
3.8,1083,0,11000,285,0,0.000753234,0,0.0261835,0,8.53007,0,0,0,0,0,0,0.257329,0.021142,2.41846e-007,285,1.5002
3.9,1111.5,0,11000,285,0,0.000770801,0,0.0261836,0,6.82196,0,0,0,0,0,0,0.257329,0.021142,1.93417e-007,285,1.50021
4,1140,0,11000,285,0,0.000789438,0,0.0261838,0,4.91675,0,0,0,0,0,0,0.25733,0.021142,1.394e-007,285,1.50022
4.1,1168.5,0,11000,285,0,0.000809144,0,0.0261839,0,2.94584,0,0,0,0,0,0,0.25733,0.021142,8.3521e-008,285,1.50022
4.2,1197,0,11000,285,0,0.000829922,0,0.026184,0,0.974941,0,0,0,0,0,0,0.25733,0.021142,2.76417e-008,285,1.50023
4.3,1225.5,0,11000,285,0,0.000851679,0,0.0261841,0,-0.86457,0,0,0,0,0,0,0.25733,0.021142,-2.45124e-008,285,1.50024
4.4,1254,0,11000,285,0,0.000874418,0,0.0261843,0,-2.57269,0,0,0,0,0,0,0.257331,0.021142,-7.29412e-008,285,1.50024
4.5,1282.5,0,11000,285,0,0.00089796,0,0.0261844,0,-4.01802,0,0,0,0,0,0,0.257331,0.0211421,-1.13919e-007,285,1.50025
4.6,1311,0,11000,285,0,0.000922125,0,0.0261845,0,-5.20056,0,0,0,0,0,0,0.257331,0.0211421,-1.47447e-007,285,1.50026
4.7,1339.5,0,11000,285,0,0.000946737,0,0.0261846,0,-6.18601,0,0,0,0,0,0,0.257331,0.0211421,-1.75387e-007,285,1.50026
4.8,1368,0,11000,285,0,0.000971794,0,0.0261847,0,-6.90868,0,0,0,0,0,0,0.257331,0.0211421,-1.95876e-007,285,1.50027
4.9,1396.5,0,11000,285,0,0.000997029,0,0.0261848,0,-7.23716,0,0,0,0,0,0,0.257331,0.0211421,-2.05189e-007,285,1.50027
5,1425,0,11000,285,0,0.00102235,0,0.0261849,0,-7.36855,0,0,0,0,0,0,0.257331,0.0211421,-2.08914e-007,285,1.50028
5.1,1453.5,0,11000,285,0,0.00104759,0,0.026185,0,-7.17146,0,0,0,0,0,0,0.257331,0.0211421,-2.03326e-007,285,1.50028
5.2,1482,0,11000,285,0,0.00107256,0,0.026185,0,-6.77728,0,0,0,0,0,0,0.257331,0.0211421,-1.9215e-007,285,1.50029
5.3,1510.5,0,11000,285,0,0.00109717,0,0.0261851,0,-6.12032,0,0,0,0,0,0,0.257331,0.0211421,-1.73524e-007,285,1.50029
5.4,1539,0,11000,285,0,0.00112133,0,0.0261851,0,-5.26626,0,0,0,0,0,0,0.257331,0.0211421,-1.4931e-007,285,1.50029
5.5,1567.5,0,11000,285,0,0.00114505,0,0.0261852,0,-4.3465,0,0,0,0,0,0,0.257331,0.0211421,-1.23233e-007,285,1.5003
5.6,1596,0,11000,285,0,0.00116806,0,0.0261852,0,-3.22966,0,0,0,0,0,0,0.257331,0.0211421,-9.15676e-008,285,1.5003
5.7,1624.5,0,11000,285,0,0.00119053,0,0.0261853,0,-2.17851,0,0,0,0,0,0,0.257331,0.021142,-6.17653e-008,285,1.5003
5.8,1653,0,11000,285,0,0.00121247,0,0.0261853,0,-0.995964,0,0,0,0,0,0,0.25733,0.021142,-2.82377e-008,285,1.5003
5.9,1681.5,0,11000,285,0,0.00123378,0,0.0261854,0,0.0551853,0,0,0,0,0,0,0.25733,0.021142,1.56462e-009,285,1.50031
6,1710,0,11000,285,0,0.00125456,0,0.0261854,0,1.04064,0,0,0,0,0,0,0.25733,0.021142,2.95043e-008,285,1.50031
6.1,1738.5,0,11000,285,0,0.00127489,0,0.0261855,0,1.96039,0,0,0,0,0,0,0.25733,0.021142,5.55813e-008,285,1.50031
6.2,1767,0,11000,285,0,0.00129477,0,0.0261855,0,2.74875,0,0,0,0,0,0,0.25733,0.021142,7.79331e-008,285,1.50032
6.3,1795.5,0,11000,285,0,0.0013143,0,0.0261856,0,3.34003,0,0,0,0,0,0,0.25733,0.021142,9.46969e-008,285,1.50032
6.4,1824,0,11000,285,0,0.00133356,0,0.0261856,0,3.7999,0,0,0,0,0,0,0.25733,0.021142,1.07735e-007,285,1.50032
6.5,1852.5,0,11000,285,0,0.00135274,0,0.0261857,0,4.06269,0,0,0,0,0,0,0.25733,0.021142,1.15186e-007,285,1.50033
6.6,1881,0,11000,285,0,0.00137182,0,0.0261858,0,4.19408,0,0,0,0,0,0,0.25733,0.021142,1.18911e-007,285,1.50033
6.7,1909.5,0,11000,285,0,0.0013909,0,0.0261859,0,4.12839,0,0,0,0,0,0,0.25733,0.021142,1.17049e-007,285,1.50033
6.8,1938,0,11000,285,0,0.00141007,0,0.0261859,0,3.9313,0,0,0,0,0,0,0.25733,0.021142,1.11461e-007,285,1.50034
6.9,1966.5,0,11000,285,0,0.00142951,0,0.026186,0,3.60281,0,0,0,0,0,0,0.25733,0.021142,1.02147e-007,285,1.50034
7,1995,0,11000,285,0,0.00144913,0,0.0261861,0,3.20863,0,0,0,0,0,0,0.25733,0.021142,9.09716e-008,285,1.50035
7.1,2023.5,0,11000,285,0,0.00146902,0,0.0261862,0,2.68306,0,0,0,0,0,0,0.25733,0.021142,7.60704e-008,285,1.50035
7.2,2052,0,11000,285,0,0.00148926,0,0.0261863,0,2.09179,0,0,0,0,0,0,0.25733,0.021142,5.93066e-008,285,1.50036
7.3,2080.5,0,11000,285,0,0.00150977,0,0.0261864,0,1.50052,0,0,0,0,0,0,0.25733,0.021142,4.25428e-008,285,1.50036
7.4,2109,0,11000,285,0,0.00153063,0,0.0261864,0,0.909244,0,0,0,0,0,0,0.25733,0.021142,2.5779e-008,285,1.50037
7.5,2137.5,0,11000,285,0,0.00155186,0,0.0261865,0,0.252276,0,0,0,0,0,0,0.25733,0.021142,7.15256e-009,285,1.50037
7.6,2166,0,11000,285,0,0.00157335,0,0.0261866,0,-0.338996,0,0,0,0,0,0,0.25733,0.021142,-9.61125e-009,285,1.50038
7.7,2194.5,0,11000,285,0,0.0015951,0,0.0261867,0,-0.86457,0,0,0,0,0,0,0.25733,0.021142,-2.45124e-008,285,1.50038
7.8,2223,0,11000,285,0,0.00161713,0,0.0261868,0,-1.32445,0,0,0,0,0,0,0.25733,0.021142,-3.75509e-008,285,1.50039
7.9,2251.5,0,11000,285,0,0.00163942,0,0.0261869,0,-1.71863,0,0,0,0,0,0,0.257331,0.021142,-4.87268e-008,285,1.50039
8,2280,0,11000,285,0,0.00166189,0,0.026187,0,-2.04711,0,0,0,0,0,0,0.257331,0.021142,-5.804e-008,285,1.5004
8.1,2308.5,0,11000,285,0,0.00168437,0,0.0261871,0,-2.17851,0,0,0,0,0,0,0.257331,0.021142,-6.17653e-008,285,1.5004
8.2,2337,0,11000,285,0,0.00170693,0,0.0261871,0,-2.3099,0,0,0,0,0,0,0.257331,0.021142,-6.54906e-008,285,1.50041
8.3,2365.5,0,11000,285,0,0.00172949,0,0.0261872,0,-2.3756,0,0,0,0,0,0,0.257331,0.021142,-6.73532e-008,285,1.50041
8.4,2394,0,11000,285,0,0.00175205,0,0.0261873,0,-2.3099,0,0,0,0,0,0,0.257331,0.021142,-6.54906e-008,285,1.50042
8.5,2422.5,0,11000,285,0,0.00177452,0,0.0261874,0,-2.17851,0,0,0,0,0,0,0.257331,0.021142,-6.17653e-008,285,1.50042
8.6,2451,0,11000,285,0,0.0017969,0,0.0261874,0,-1.91572,0,0,0,0,0,0,0.257331,0.021142,-5.43147e-008,285,1.50042
8.7,2479.5,0,11000,285,0,0.00181919,0,0.0261875,0,-1.65293,0,0,0,0,0,0,0.257331,0.021142,-4.68642e-008,285,1.50043
8.8,2508,0,11000,285,0,0.00184122,0,0.0261876,0,-1.32445,0,0,0,0,0,0,0.25733,0.021142,-3.75509e-008,285,1.50043
8.9,2536.5,0,11000,285,0,0.00186315,0,0.0261876,0,-0.995964,0,0,0,0,0,0,0.25733,0.021142,-2.82377e-008,285,1.50043
9,2565,0,11000,285,0,0.00188482,0,0.0261877,0,-0.601783,0,0,0,0,0,0,0.25733,0.021142,-1.70618e-008,285,1.50044
9.1,2593.5,0,11000,285,0,0.00190631,0,0.0261878,0,-0.273299,0,0,0,0,0,0,0.25733,0.021142,-7.7486e-009,285,1.50044
9.2,2622,0,11000,285,0,0.00192763,0,0.0261878,0,0.0551853,0,0,0,0,0,0,0.25733,0.021142,1.56462e-009,285,1.50045
9.3,2650.5,0,11000,285,0,0.00194876,0,0.0261879,0,0.383669,0,0,0,0,0,0,0.25733,0.021142,1.08778e-008,285,1.50045
9.4,2679,0,11000,285,0,0.0019698,0,0.026188,0,0.646457,0,0,0,0,0,0,0.25733,0.021142,1.83284e-008,285,1.50045
9.5,2707.5,0,11000,285,0,0.00199067,0,0.026188,0,0.909244,0,0,0,0,0,0,0.25733,0.021142,2.5779e-008,285,1.50046
9.6,2736,0,11000,285,0,0.00201145,0,0.0261881,0,1.10633,0,0,0,0,0,0,0.25733,0.021142,3.13669e-008,285,1.50046
9.7,2764.5,0,11000,285,0,0.00203214,0,0.0261882,0,1.23773,0,0,0,0,0,0,0.25733,0.021142,3.50922e-008,285,1.50046
9.8,2793,0,11000,285,0,0.00205282,0,0.0261882,0,1.30342,0,0,0,0,0,0,0.25733,0.021142,3.69549e-008,285,1.50047
9.9,2821.5,0,11000,285,0,0.00207351,0,0.0261883,0,1.30342,0,0,0,0,0,0,0.25733,0.021142,3.69549e-008,285,1.50047
10,2850,0,11000,285,0,0.0020942,0,0.0261884,0,1.30342,0,0,0,0,0,0,0.25733,0.021142,3.69549e-008,285,1.50048
10.1,2878.5,0,11000,285,0,0.00211489,0,0.0261885,0,1.23773,0,0,0,0,0,0,0.25733,0.021142,3.50922e-008,285,1.50048
10.2,2907,0,11000,285,0,0.00213566,0,0.0261885,0,1.10633,0,0,0,0,0,0,0.25733,0.021142,3.13669e-008,285,1.50049
10.3,2935.5,0,11000,285,0,0.00215644,0,0.0261886,0,0.974941,0,0,0,0,0,0,0.25733,0.021142,2.76417e-008,285,1.50049
10.4,2964,0,11000,285,0,0.00217731,0,0.0261887,0,0.77785,0,0,0,0,0,0,0.25733,0.021142,2.20537e-008,285,1.50049
10.5,2992.5,0,11000,285,0,0.00219835,0,0.0261888,0,0.646457,0,0,0,0,0,0,0.25733,0.021142,1.83284e-008,285,1.5005
10.6,3021,0,11000,285,0,0.00221949,0,0.0261889,0,0.383669,0,0,0,0,0,0,0.25733,0.021142,1.08778e-008,285,1.5005
10.7,3049.5,0,11000,285,0,0.00224071,0,0.0261889,0,0.186579,0,0,0,0,0,0,0.25733,0.021142,5.28991e-009,285,1.50051
10.8,3078,0,11000,285,0,0.00226202,0,0.026189,0,-0.0105115,0,0,0,0,0,0,0.25733,0.021142,-2.98023e-010,285,1.50051
10.9,3106.5,0,11000,285,0,0.00228351,0,0.0261891,0,-0.207602,0,0,0,0,0,0,0.25733,0.021142,-5.88596e-009,285,1.50052
11,3135,0,11000,285,0,0.002305,0,0.0261892,0,-0.338996,0,0,0,0,0,0,0.25733,0.021142,-9.61125e-009,285,1.50052
11.1,3163.5,0,11000,285,0,0.00232658,0,0.0261893,0,-0.536086,0,0,0,0,0,0,0.25733,0.021142,-1.51992e-008,285,1.50053
11.2,3192,0,11000,285,0,0.00234825,0,0.0261893,0,-0.601783,0,0,0,0,0,0,0.25733,0.021142,-1.70618e-008,285,1.50053
11.3,3220.5,0,11000,285,0,0.00236992,0,0.0261894,0,-0.66748,0,0,0,0,0,0,0.25733,0.021142,-1.89245e-008,285,1.50053
11.4,3249,0,11000,285,0,0.00239168,0,0.0261895,0,-0.798873,0,0,0,0,0,0,0.25733,0.021142,-2.26498e-008,285,1.50054
11.5,3277.5,0,11000,285,0,0.00241344,0,0.0261896,0,-0.798873,0,0,0,0,0,0,0.25733,0.021142,-2.26498e-008,285,1.50054
11.6,3306,0,11000,285,0,0.00243519,0,0.0261896,0,-0.798873,0,0,0,0,0,0,0.25733,0.021142,-2.26498e-008,285,1.50055
11.7,3334.5,0,11000,285,0,0.00245686,0,0.0261897,0,-0.733176,0,0,0,0,0,0,0.25733,0.021142,-2.07871e-008,285,1.50055
11.8,3363,0,11000,285,0,0.00247853,0,0.0261898,0,-0.66748,0,0,0,0,0,0,0.25733,0.021142,-1.89245e-008,285,1.50056
11.9,3391.5,0,11000,285,0,0.00250011,0,0.0261899,0,-0.536086,0,0,0,0,0,0,0.25733,0.021142,-1.51992e-008,285,1.50056
12,3420,0,11000,285,0,0.00252169,0,0.0261899,0,-0.404692,0,0,0,0,0,0,0.25733,0.021142,-1.14739e-008,285,1.50056
12.1,3448.5,0,11000,285,0,0.00254318,0,0.02619,0,-0.338996,0,0,0,0,0,0,0.25733,0.021142,-9.61125e-009,285,1.50057
12.2,3477,0,11000,285,0,0.00256467,0,0.0261901,0,-0.207602,0,0,0,0,0,0,0.25733,0.021142,-5.88596e-009,285,1.50057
12.3,3505.5,0,11000,285,0,0.00258616,0,0.0261902,0,-0.141905,0,0,0,0,0,0,0.25733,0.021142,-4.02331e-009,285,1.50058
12.4,3534,0,11000,285,0,0.00260747,0,0.0261902,0,-0.0105115,0,0,0,0,0,0,0.25733,0.021142,-2.98023e-010,285,1.50058
12.5,3562.5,0,11000,285,0,0.00262879,0,0.0261903,0,0.0551853,0,0,0,0,0,0,0.25733,0.021142,1.56462e-009,285,1.50058
12.6,3591,0,11000,285,0,0.00265001,0,0.0261904,0,0.120882,0,0,0,0,0,0,0.25733,0.021142,3.42727e-009,285,1.50059
12.7,3619.5,0,11000,285,0,0.00267123,0,0.0261904,0,0.186579,0,0,0,0,0,0,0.25733,0.021142,5.28991e-009,285,1.50059
12.8,3648,0,11000,285,0,0.00269246,0,0.0261905,0,0.252276,0,0,0,0,0,0,0.25733,0.021142,7.15256e-009,285,1.5006
12.9,3676.5,0,11000,285,0,0.00271359,0,0.0261906,0,0.317973,0,0,0,0,0,0,0.25733,0.021142,9.0152e-009,285,1.5006
13,3705,0,11000,285,0,0.00273472,0,0.0261907,0,0.383669,0,0,0,0,0,0,0.25733,0.021142,1.08778e-008,285,1.50061
13.1,3733.5,0,11000,285,0,0.00275586,0,0.0261907,0,0.449366,0,0,0,0,0,0,0.25733,0.021142,1.27405e-008,285,1.50061
13.2,3762,0,11000,285,0,0.00277699,0,0.0261908,0,0.383669,0,0,0,0,0,0,0.25733,0.021142,1.08778e-008,285,1.50061
13.3,3790.5,0,11000,285,0,0.00279812,0,0.0261909,0,0.383669,0,0,0,0,0,0,0.25733,0.021142,1.08778e-008,285,1.50062
13.4,3819,0,11000,285,0,0.00281926,0,0.026191,0,0.383669,0,0,0,0,0,0,0.25733,0.021142,1.08778e-008,285,1.50062
13.5,3847.5,0,11000,285,0,0.00284039,0,0.026191,0,0.383669,0,0,0,0,0,0,0.25733,0.021142,1.08778e-008,285,1.50063
13.6,3876,0,11000,285,0,0.00286153,0,0.0261911,0,0.383669,0,0,0,0,0,0,0.25733,0.021142,1.08778e-008,285,1.50063
13.7,3904.5,0,11000,285,0,0.00288275,0,0.0261912,0,0.252276,0,0,0,0,0,0,0.25733,0.021142,7.15256e-009,285,1.50063
13.8,3933,0,11000,285,0,0.00290397,0,0.0261913,0,0.186579,0,0,0,0,0,0,0.25733,0.021142,5.28991e-009,285,1.50064
13.9,3961.5,0,11000,285,0,0.0029252,0,0.0261913,0,0.120882,0,0,0,0,0,0,0.25733,0.021142,3.42727e-009,285,1.50064
14,3990,0,11000,285,0,0.00294651,0,0.0261914,0,0.0551853,0,0,0,0,0,0,0.25733,0.021142,1.56462e-009,285,1.50065
14.1,4018.5,0,11000,285,0,0.00296782,0,0.0261915,0,0.0551853,0,0,0,0,0,0,0.25733,0.021142,1.56462e-009,285,1.50065
14.2,4047,0,11000,285,0,0.00298913,0,0.0261916,0,-0.0105115,0,0,0,0,0,0,0.25733,0.021142,-2.98023e-010,285,1.50066
14.3,4075.5,0,11000,285,0,0.00301044,0,0.0261916,0,-0.0762083,0,0,0,0,0,0,0.25733,0.021142,-2.16067e-009,285,1.50066
14.4,4104,0,11000,285,0,0.00303193,0,0.0261917,0,-0.141905,0,0,0,0,0,0,0.25733,0.021142,-4.02331e-009,285,1.50066
14.5,4132.5,0,11000,285,0,0.00305342,0,0.0261918,0,-0.207602,0,0,0,0,0,0,0.25733,0.021142,-5.88596e-009,285,1.50067
14.6,4161,0,11000,285,0,0.00307492,0,0.0261919,0,-0.207602,0,0,0,0,0,0,0.25733,0.021142,-5.88596e-009,285,1.50067
14.7,4189.5,0,11000,285,0,0.00309641,0,0.026192,0,-0.273299,0,0,0,0,0,0,0.25733,0.021142,-7.7486e-009,285,1.50068
14.8,4218,0,11000,285,0,0.0031179,0,0.026192,0,-0.207602,0,0,0,0,0,0,0.25733,0.021142,-5.88596e-009,285,1.50068
14.9,4246.5,0,11000,285,0,0.00313939,0,0.0261921,0,-0.207602,0,0,0,0,0,0,0.25733,0.021142,-5.88596e-009,285,1.50069
15,4275,0,11000,285,0,0.00316088,0,0.0261922,0,-0.141905,0,0,0,0,0,0,0.25733,0.021142,-4.02331e-009,285,1.50069
15.1,4303.5,0,11000,285,0,0.00318237,0,0.0261923,0,-0.141905,0,0,0,0,0,0,0.25733,0.021142,-4.02331e-009,285,1.50069
15.2,4332,0,11000,285,0,0.00320368,0,0.0261923,0,-0.0762083,0,0,0,0,0,0,0.25733,0.021142,-2.16067e-009,285,1.5007
15.3,4360.5,0,11000,285,0,0.00322499,0,0.0261924,0,-0.0762083,0,0,0,0,0,0,0.25733,0.021142,-2.16067e-009,285,1.5007
15.4,4389,0,11000,285,0,0.0032463,0,0.0261925,0,-0.0762083,0,0,0,0,0,0,0.25733,0.021142,-2.16067e-009,285,1.50071
15.5,4417.5,0,11000,285,0,0.00326762,0,0.0261925,0,-0.0762083,0,0,0,0,0,0,0.25733,0.021142,-2.16067e-009,285,1.50071
15.6,4446,0,11000,285,0,0.00328893,0,0.0261926,0,-0.0762083,0,0,0,0,0,0,0.25733,0.021142,-2.16067e-009,285,1.50072
15.7,4474.5,0,11000,285,0,0.00331024,0,0.0261927,0,-0.0105115,0,0,0,0,0,0,0.25733,0.021142,-2.98023e-010,285,1.50072
15.8,4503,0,11000,285,0,0.00333155,0,0.0261928,0,-0.0105115,0,0,0,0,0,0,0.25733,0.021142,-2.98023e-010,285,1.50072
15.9,4531.5,0,11000,285,0,0.00335286,0,0.0261928,0,-0.0105115,0,0,0,0,0,0,0.25733,0.021142,-2.98023e-010,285,1.50073
16,4560,0,11000,285,0,0.00337418,0,0.0261929,0,-0.0105115,0,0,0,0,0,0,0.25733,0.021142,-2.98023e-010,285,1.50073
16.1,4588.5,0,11000,285,0,0.00339549,0,0.026193,0,-0.0105115,0,0,0,0,0,0,0.25733,0.021142,-2.98023e-010,285,1.50074
16.2,4617,0,11000,285,0,0.0034168,0,0.0261931,0,-0.0105115,0,0,0,0,0,0,0.25733,0.021142,-2.98023e-010,285,1.50074
16.3,4645.5,0,11000,285,0,0.00343811,0,0.0261931,0,-0.0105115,0,0,0,0,0,0,0.25733,0.021142,-2.98023e-010,285,1.50074
16.4,4674,0,11000,285,0,0.00345943,0,0.0261932,0,0.0551853,0,0,0,0,0,0,0.25733,0.021142,1.56462e-009,285,1.50075
16.5,4702.5,0,11000,285,0,0.00348074,0,0.0261933,0,0.0551853,0,0,0,0,0,0,0.25733,0.021142,1.56462e-009,285,1.50075
16.6,4731,0,11000,285,0,0.00350205,0,0.0261934,0,0.0551853,0,0,0,0,0,0,0.25733,0.021142,1.56462e-009,285,1.50076
16.7,4759.5,0,11000,285,0,0.00352336,0,0.0261934,0,0.0551853,0,0,0,0,0,0,0.25733,0.021142,1.56462e-009,285,1.50076
16.8,4788,0,11000,285,0,0.00354467,0,0.0261935,0,0.0551853,0,0,0,0,0,0,0.25733,0.021142,1.56462e-009,285,1.50077
16.9,4816.5,0,11000,285,0,0.00356599,0,0.0261936,0,0.0551853,0,0,0,0,0,0,0.25733,0.021142,1.56462e-009,285,1.50077
17,4845,0,11000,285,0,0.0035873,0,0.0261937,0,0.0551853,0,0,0,0,0,0,0.25733,0.021142,1.56462e-009,285,1.50077
17.1,4873.5,0,11000,285,0,0.00360852,0,0.0261937,0,0.120882,0,0,0,0,0,0,0.25733,0.021142,3.42727e-009,285,1.50078
17.2,4902,0,11000,285,0,0.00362974,0,0.0261938,0,0.120882,0,0,0,0,0,0,0.25733,0.021142,3.42727e-009,285,1.50078
17.3,4930.5,0,11000,285,0,0.00365097,0,0.0261939,0,0.120882,0,0,0,0,0,0,0.25733,0.021142,3.42727e-009,285,1.50079
17.4,4959,0,11000,285,0,0.00367219,0,0.026194,0,0.120882,0,0,0,0,0,0,0.25733,0.021142,3.42727e-009,285,1.50079
17.5,4987.5,0,11000,285,0,0.00369341,0,0.026194,0,0.120882,0,0,0,0,0,0,0.25733,0.021142,3.42727e-009,285,1.50079
17.6,5016,0,11000,285,0,0.00371473,0,0.0261941,0,0.0551853,0,0,0,0,0,0,0.25733,0.021142,1.56462e-009,285,1.5008
17.7,5044.5,0,11000,285,0,0.00373595,0,0.0261942,0,0.120882,0,0,0,0,0,0,0.25733,0.021142,3.42727e-009,285,1.5008
17.8,5073,0,11000,285,0,0.00375717,0,0.0261943,0,0.120882,0,0,0,0,0,0,0.25733,0.021142,3.42727e-009,285,1.50081
17.9,5101.5,0,11000,285,0,0.00377848,0,0.0261943,0,0.0551853,0,0,0,0,0,0,0.25733,0.021142,1.56462e-009,285,1.50081
18,5130,0,11000,285,0,0.0037998,0,0.0261944,0,-0.0105115,0,0,0,0,0,0,0.25733,0.021142,-2.98023e-010,285,1.50082
18.1,5158.5,0,11000,285,0,0.00382111,0,0.0261945,0,-0.0762083,0,0,0,0,0,0,0.25733,0.021142,-2.16067e-009,285,1.50082
18.2,5187,0,11000,285,0,0.0038426,0,0.0261946,0,-0.141905,0,0,0,0,0,0,0.25733,0.021142,-4.02331e-009,285,1.50082
18.3,5215.5,0,11000,285,0,0.00386391,0,0.0261946,0,-0.0762083,0,0,0,0,0,0,0.25733,0.021142,-2.16067e-009,285,1.50083
18.4,5244,0,11000,285,0,0.00388522,0,0.0261947,0,-0.0762083,0,0,0,0,0,0,0.25733,0.021142,-2.16067e-009,285,1.50083
18.5,5272.5,0,11000,285,0,0.00390653,0,0.0261948,0,-0.0762083,0,0,0,0,0,0,0.25733,0.021142,-2.16067e-009,285,1.50084
18.6,5301,0,11000,285,0,0.00392785,0,0.0261949,0,-0.0762083,0,0,0,0,0,0,0.25733,0.021142,-2.16067e-009,285,1.50084
18.7,5329.5,0,11000,285,0,0.00394916,0,0.0261949,0,-0.0762083,0,0,0,0,0,0,0.25733,0.021142,-2.16067e-009,285,1.50085
18.8,5358,0,11000,285,0,0.00397047,0,0.026195,0,-0.0762083,0,0,0,0,0,0,0.25733,0.021142,-2.16067e-009,285,1.50085
18.9,5386.5,0,11000,285,0,0.00399178,0,0.0261951,0,-0.0762083,0,0,0,0,0,0,0.25733,0.021142,-2.16067e-009,285,1.50085
19,5415,0,11000,285,0,0.00401309,0,0.0261952,0,-0.0105115,0,0,0,0,0,0,0.25733,0.021142,-2.98023e-010,285,1.50086
19.1,5443.5,0,11000,285,0,0.00403441,0,0.0261952,0,-0.0105115,0,0,0,0,0,0,0.25733,0.021142,-2.98023e-010,285,1.50086
19.2,5472,0,11000,285,0,0.00405572,0,0.0261953,0,-0.0105115,0,0,0,0,0,0,0.25733,0.021142,-2.98023e-010,285,1.50087
19.3,5500.5,0,11000,285,0,0.00407703,0,0.0261954,0,-0.0105115,0,0,0,0,0,0,0.25733,0.021142,-2.98023e-010,285,1.50087
19.4,5529,0,11000,285,0,0.00409834,0,0.0261955,0,-0.0105115,0,0,0,0,0,0,0.25733,0.021142,-2.98023e-010,285,1.50087
19.5,5557.5,0,11000,285,0,0.00411965,0,0.0261955,0,-0.0105115,0,0,0,0,0,0,0.25733,0.021142,-2.98023e-010,285,1.50088
19.6,5586,0,11000,285,0,0.00414097,0,0.0261956,0,-0.0105115,0,0,0,0,0,0,0.25733,0.021142,-2.98023e-010,285,1.50088
19.7,5614.5,0,11000,285,0,0.00416228,0,0.0261957,0,0.0551853,0,0,0,0,0,0,0.25733,0.021142,1.56462e-009,285,1.50089
19.8,5643,0,11000,285,0,0.00418359,0,0.0261958,0,0.0551853,0,0,0,0,0,0,0.25733,0.021142,1.56462e-009,285,1.50089
19.9,5671.5,0,11000,285,0,0.0042049,0,0.0261958,0,0.0551853,0,0,0,0,0,0,0.25733,0.021142,1.56462e-009,285,1.5009
20,5700,0,11000,285,0,0.00422621,0,0.0261959,0,0.0551853,0,0,0,0,0,0,0.25733,0.021142,1.56462e-009,285,1.5009
20.1,5728.5,0,11000,285,0,0.00424753,0,0.026196,0,0.0551853,0,0,0,0,0,0,0.25733,0.021142,1.56462e-009,285,1.5009
20.2,5757,0,11000,285,0,0.00426884,0,0.0261961,0,0.0551853,0,0,0,0,0,0,0.25733,0.021142,1.56462e-009,285,1.50091
20.3,5785.5,0,11000,285,0,0.00429015,0,0.0261961,0,0.0551853,0,0,0,0,0,0,0.25733,0.021142,1.56462e-009,285,1.50091
20.4,5814,0,11000,285,0,0.00431137,0,0.0261962,0,0.120882,0,0,0,0,0,0,0.25733,0.021142,3.42727e-009,285,1.50092
20.5,5842.5,0,11000,285,0,0.0043326,0,0.0261963,0,0.120882,0,0,0,0,0,0,0.25733,0.021142,3.42727e-009,285,1.50092
20.6,5871,0,11000,285,0,0.00435382,0,0.0261964,0,0.120882,0,0,0,0,0,0,0.25733,0.021142,3.42727e-009,285,1.50093
20.7,5899.5,0,11000,285,0,0.00437513,0,0.0261964,0,0.0551853,0,0,0,0,0,0,0.25733,0.021142,1.56462e-009,285,1.50093
20.8,5928,0,11000,285,0,0.00439644,0,0.0261965,0,-0.0105115,0,0,0,0,0,0,0.25733,0.021142,-2.98023e-010,285,1.50093
20.9,5956.5,0,11000,285,0,0.00441775,0,0.0261966,0,-0.0762083,0,0,0,0,0,0,0.25733,0.021142,-2.16067e-009,285,1.50094
21,5985,0,11000,285,0,0.00443924,0,0.0261967,0,-0.141905,0,0,0,0,0,0,0.25733,0.021142,-4.02331e-009,285,1.50094
21.1,6013.5,0,11000,285,0,0.00446073,0,0.0261967,0,-0.141905,0,0,0,0,0,0,0.25733,0.021142,-4.02331e-009,285,1.50095
21.2,6042,0,11000,285,0,0.00448231,0,0.0261968,0,-0.0762083,0,0,0,0,0,0,0.25733,0.021142,-2.16067e-009,285,1.50095
21.3,6070.5,0,11000,285,0,0.00450407,0,0.0261969,0,-0.0105115,0,0,0,0,0,0,0.25733,0.021142,-2.98023e-010,285,1.50096
21.4,6099,0,11000,285,0,0.00452601,0,0.026197,0,0.0551854,0,0,0,0,0,0,0.25733,0.021142,1.56462e-009,285,1.50096
21.5,6127.5,0,11000,285,0,0.00454803,0,0.026197,0,0.120882,0,0,0,0,0,0,0.25733,0.021142,3.42727e-009,285,1.50096
21.6,6156,0,11000,285,0,0.00457033,0,0.0261971,0,0.186579,0,0,0,0,0,0,0.25733,0.021142,5.28991e-009,285,1.50097
21.7,6184.5,0,11000,285,0,0.0045928,0,0.0261972,0,0.252276,0,0,0,0,0,0,0.25733,0.021142,7.15256e-009,285,1.50097
21.8,6213,0,11000,285,0,0.00461536,0,0.0261973,0,0.38367,0,0,0,0,0,0,0.25733,0.021142,1.08778e-008,285,1.50098
21.9,6241.5,0,11000,285,0,0.00463819,0,0.0261973,0,0.449367,0,0,0,0,0,0,0.25733,0.021142,1.27405e-008,285,1.50098
22,6270,0,11000,285,0,0.0046611,0,0.0261974,0,0.580761,0,0,0,0,0,0,0.25733,0.021142,1.64658e-008,285,1.50099
22.1,6298.5,0,11000,285,0,0.00468411,0,0.0261975,0,0.712155,0,0,0,0,0,0,0.25733,0.021142,2.01911e-008,285,1.50099
22.2,6327,0,11000,285,0,0.0047073,0,0.0261976,0,0.843549,0,0,0,0,0,0,0.25733,0.021142,2.39164e-008,285,1.50099
22.3,6355.5,0,11000,285,0,0.00473075,0,0.0261977,0,0.909246,0,0,0,0,0,0,0.25733,0.021142,2.5779e-008,285,1.501
22.4,6384,0,11000,285,0,0.00475429,0,0.0261977,0,1.04064,0,0,0,0,0,0,0.25733,0.021142,2.95043e-008,285,1.501
22.5,6412.5,0,11000,285,0,0.00477801,0,0.0261978,0,1.10634,0,0,0,0,0,0,0.25733,0.021142,3.13669e-008,285,1.50101
22.6,6441,0,11000,285,0,0.00480182,0,0.0261979,0,1.17203,0,0,0,0,0,0,0.25733,0.021142,3.32296e-008,285,1.50101
22.7,6469.5,0,11000,285.001,0,0.00482598,0,0.026198,0,1.10634,0,0,0,0,0,0,0.25733,0.021142,3.13669e-008,285.001,1.50102
22.8,6498,0,11000,285.001,0,0.00485024,0,0.0261981,0,1.17204,0,0,0,0,0,0,0.25733,0.021142,3.32296e-008,285.001,1.50102
22.9,6526.5,0,11000,285.001,0,0.00487467,0,0.0261982,0,1.17204,0,0,0,0,0,0,0.25733,0.021142,3.32296e-008,285.001,1.50103
23,6555,0,11000,285.001,0,0.00489946,0,0.0261982,0,1.10634,0,0,0,0,0,0,0.25733,0.021142,3.13669e-008,285.001,1.50103
23.1,6583.5,0,11000,285.001,0,0.00492443,0,0.0261983,0,1.04064,0,0,0,0,0,0,0.25733,0.021142,2.95043e-008,285.001,1.50104
23.2,6612,0,11000,285.001,0,0.00494958,0,0.0261984,0,0.974945,0,0,0,0,0,0,0.25733,0.021142,2.76417e-008,285.001,1.50104
23.3,6640.5,0,11000,285.001,0,0.00497499,0,0.0261985,0,0.974945,0,0,0,0,0,0,0.25733,0.021142,2.76417e-008,285.001,1.50105
23.4,6669,0,11000,285.001,0,0.00500067,0,0.0261986,0,0.909248,0,0,0,0,0,0,0.25733,0.021142,2.5779e-008,285.001,1.50105
23.5,6697.5,0,11000,285.001,0,0.00502662,0,0.0261987,0,0.843551,0,0,0,0,0,0,0.25733,0.021142,2.39164e-008,285.001,1.50106
23.6,6726,0,11000,285.001,0,0.00505275,0,0.0261988,0,0.777854,0,0,0,0,0,0,0.25733,0.021142,2.20537e-008,285.001,1.50106
23.7,6754.5,0,11000,285.001,0,0.00507905,0,0.0261989,0,0.712157,0,0,0,0,0,0,0.25733,0.021142,2.01911e-008,285.001,1.50107
23.8,6783,0,11000,285.001,0,0.00510572,0,0.026199,0,0.64646,0,0,0,0,0,0,0.25733,0.021142,1.83284e-008,285.001,1.50107
23.9,6811.5,0,11000,285.001,0,0.00513256,0,0.0261991,0,0.580763,0,0,0,0,0,0,0.25733,0.021142,1.64658e-008,285.001,1.50108
24,6840,0,11000,285.001,0,0.00515966,0,0.0261992,0,0.515066,0,0,0,0,0,0,0.25733,0.021142,1.46031e-008,285.001,1.50108
24.1,6868.5,0,11000,285.001,0,0.00518695,0,0.0261993,0,0.515066,0,0,0,0,0,0,0.25733,0.021142,1.46031e-008,285.001,1.50109
24.2,6897,0,11000,285.001,0,0.00521459,0,0.0261994,0,0.449369,0,0,0,0,0,0,0.25733,0.021142,1.27405e-008,285.001,1.50109
24.3,6925.5,0,11000,285.001,0,0.00524242,0,0.0261995,0,0.449369,0,0,0,0,0,0,0.25733,0.021142,1.27405e-008,285.001,1.5011
24.4,6954,0,11000,285.001,0,0.0052705,0,0.0261996,0,0.449369,0,0,0,0,0,0,0.25733,0.021142,1.27405e-008,285.001,1.50111
24.5,6982.5,0,11000,285.001,0,0.00529877,0,0.0261997,0,0.449369,0,0,0,0,0,0,0.25733,0.021142,1.27405e-008,285.001,1.50111
24.6,7011,0,11000,285.001,0,0.00532713,0,0.0261998,0,0.515067,0,0,0,0,0,0,0.25733,0.021142,1.46031e-008,285.001,1.50112
24.7,7039.5,0,11000,285.001,0,0.00535566,0,0.0261999,0,0.515067,0,0,0,0,0,0,0.25733,0.021142,1.46031e-008,285.001,1.50112
24.8,7068,0,11000,285.001,0,0.00538447,0,0.0262,0,0.580764,0,0,0,0,0,0,0.25733,0.021142,1.64658e-008,285.001,1.50113
24.9,7096.5,0,11000,285.001,0,0.00541345,0,0.0262001,0,0.580765,0,0,0,0,0,0,0.25733,0.021142,1.64658e-008,285.001,1.50113
25,7125,0,11000,285.001,0,0.00544261,0,0.0262002,0,0.646462,0,0,0,0,0,0,0.25733,0.021142,1.83284e-008,285.001,1.50114
25.1,7153.5,0,11000,285.001,0,0.00547185,0,0.0262003,0,0.71216,0,0,0,0,0,0,0.25733,0.021142,2.01911e-008,285.001,1.50115
25.2,7182,0,11000,285.001,0,0.00550137,0,0.0262004,0,0.71216,0,0,0,0,0,0,0.25733,0.021142,2.01911e-008,285.001,1.50115
25.3,7210.5,0,11000,285.001,0,0.00553106,0,0.0262005,0,0.71216,0,0,0,0,0,0,0.25733,0.021142,2.01911e-008,285.001,1.50116
25.4,7239,0,11000,285.001,0,0.00556103,0,0.0262006,0,0.71216,0,0,0,0,0,0,0.25733,0.021142,2.01911e-008,285.001,1.50116
25.5,7267.5,0,11000,285.001,0,0.00559117,0,0.0262007,0,0.777858,0,0,0,0,0,0,0.25733,0.021142,2.20537e-008,285.001,1.50117
25.6,7296,0,11000,285.001,0,0.00562148,0,0.0262008,0,0.777858,0,0,0,0,0,0,0.25733,0.021142,2.20537e-008,285.001,1.50117
25.7,7324.5,0,11000,285.001,0,0.00565207,0,0.0262009,0,0.777858,0,0,0,0,0,0,0.25733,0.021142,2.20537e-008,285.001,1.50118
25.8,7353,0,11000,285.001,0,0.00568283,0,0.026201,0,0.843556,0,0,0,0,0,0,0.25733,0.021142,2.39164e-008,285.001,1.50119
25.9,7381.5,0,11000,285.001,0,0.00571378,0,0.0262011,0,0.843556,0,0,0,0,0,0,0.25733,0.021142,2.39164e-008,285.001,1.50119
26,7410,0,11000,285.002,0,0.00574499,0,0.0262012,0,0.843556,0,0,0,0,0,0,0.25733,0.021142,2.39164e-008,285.002,1.5012
26.1,7438.5,0,11000,285.002,0,0.00577638,0,0.0262013,0,0.843556,0,0,0,0,0,0,0.25733,0.021142,2.39164e-008,285.002,1.50121
26.2,7467,0,11000,285.002,0,0.00580794,0,0.0262014,0,0.843556,0,0,0,0,0,0,0.25733,0.021142,2.39164e-008,285.002,1.50121
26.3,7495.5,0,11000,285.002,0,0.00583978,0,0.0262015,0,0.843556,0,0,0,0,0,0,0.25733,0.021142,2.39164e-008,285.002,1.50122
26.4,7524,0,11000,285.002,0,0.00587179,0,0.0262017,0,0.843557,0,0,0,0,0,0,0.25733,0.021142,2.39164e-008,285.002,1.50122
26.5,7552.5,0,11000,285.002,0,0.00590398,0,0.0262018,0,0.777859,0,0,0,0,0,0,0.25733,0.021142,2.20537e-008,285.002,1.50123
26.6,7581,0,11000,285.002,0,0.00593644,0,0.0262019,0,0.777859,0,0,0,0,0,0,0.25733,0.021142,2.20537e-008,285.002,1.50124
26.7,7609.5,0,11000,285.002,0,0.00596908,0,0.026202,0,0.77786,0,0,0,0,0,0,0.25733,0.021142,2.20537e-008,285.002,1.50124
26.8,7638,0,11000,285.002,0,0.00600198,0,0.0262021,0,0.712162,0,0,0,0,0,0,0.25733,0.021142,2.01911e-008,285.002,1.50125
26.9,7666.5,0,11000,285.002,0,0.00603506,0,0.0262022,0,0.712162,0,0,0,0,0,0,0.25733,0.021142,2.01911e-008,285.002,1.50126
27,7695,0,11000,285.002,0,0.00606833,0,0.0262024,0,0.712162,0,0,0,0,0,0,0.25733,0.021142,2.01911e-008,285.002,1.50126
27.1,7723.5,0,11000,285.002,0,0.00610194,0,0.0262025,0,0.646465,0,0,0,0,0,0,0.25733,0.021142,1.83284e-008,285.002,1.50127
27.2,7752,0,11000,285.002,0,0.00613565,0,0.0262026,0,0.712163,0,0,0,0,0,0,0.25733,0.021142,2.01911e-008,285.002,1.50128
27.3,7780.5,0,11000,285.002,0,0.00616971,0,0.0262027,0,0.646465,0,0,0,0,0,0,0.25733,0.021142,1.83284e-008,285.002,1.50128
27.4,7809,0,11000,285.002,0,0.00620396,0,0.0262028,0,0.646465,0,0,0,0,0,0,0.25733,0.021142,1.83284e-008,285.002,1.50129
27.5,7837.5,0,11000,285.002,0,0.00623829,0,0.026203,0,0.712163,0,0,0,0,0,0,0.25733,0.021142,2.01911e-008,285.002,1.5013
27.6,7866,0,11000,285.002,0,0.00627297,0,0.0262031,0,0.646466,0,0,0,0,0,0,0.25733,0.021142,1.83284e-008,285.002,1.5013
27.7,7894.5,0,11000,285.002,0,0.00630775,0,0.0262032,0,0.712163,0,0,0,0,0,0,0.25733,0.021142,2.01911e-008,285.002,1.50131
27.8,7923,0,11000,285.002,0,0.0063428,0,0.0262033,0,0.646466,0,0,0,0,0,0,0.25733,0.021142,1.83284e-008,285.002,1.50132
27.9,7951.5,0,11000,285.002,0,0.00637811,0,0.0262034,0,0.646466,0,0,0,0,0,0,0.25733,0.021142,1.83284e-008,285.002,1.50132
28,7980,0,11000,285.002,0,0.00641351,0,0.0262036,0,0.712164,0,0,0,0,0,0,0.25733,0.021142,2.01911e-008,285.002,1.50133
28.1,8008.5,0,11000.1,285.002,0,0.00644918,0,0.0262037,0,0.646466,0,0,0,0,0,0,0.25733,0.021142,1.83284e-008,285.002,1.50134
28.2,8037,0,11000.1,285.002,0,0.00648502,0,0.0262038,0,0.712164,0,0,0,0,0,0,0.25733,0.021142,2.01911e-008,285.002,1.50135
28.3,8065.5,0,11000.1,285.002,0,0.00652105,0,0.0262039,0,0.712164,0,0,0,0,0,0,0.25733,0.021142,2.01911e-008,285.002,1.50135
28.4,8094,0,11000.1,285.002,0,0.00655725,0,0.0262041,0,0.712165,0,0,0,0,0,0,0.25733,0.021142,2.01911e-008,285.002,1.50136
28.5,8122.5,0,11000.1,285.002,0,0.00659373,0,0.0262042,0,0.712165,0,0,0,0,0,0,0.25733,0.021142,2.01911e-008,285.002,1.50137
28.6,8151,0,11000.1,285.002,0,0.00663037,0,0.0262043,0,0.712165,0,0,0,0,0,0,0.25733,0.021142,2.01911e-008,285.002,1.50137
28.7,8179.5,0,11000.1,285.002,0,0.0066672,0,0.0262045,0,0.712165,0,0,0,0,0,0,0.25733,0.021142,2.01911e-008,285.002,1.50138
28.8,8208,0,11000.1,285.002,0,0.0067043,0,0.0262046,0,0.712165,0,0,0,0,0,0,0.25733,0.021142,2.01911e-008,285.002,1.50139
28.9,8236.5,0,11000.1,285.002,0,0.00674157,0,0.0262047,0,0.712165,0,0,0,0,0,0,0.25733,0.021142,2.01911e-008,285.002,1.5014
29,8265,0,11000.1,285.002,0,0.00677902,0,0.0262048,0,0.712165,0,0,0,0,0,0,0.25733,0.021142,2.01911e-008,285.002,1.5014
29.1,8293.5,0,11000.1,285.002,0,0.00681674,0,0.026205,0,0.712166,0,0,0,0,0,0,0.25733,0.021142,2.01911e-008,285.002,1.50141
29.2,8322,0,11000.1,285.003,0,0.00685464,0,0.0262051,0,0.712166,0,0,0,0,0,0,0.25733,0.021142,2.01911e-008,285.003,1.50142
29.3,8350.5,0,11000.1,285.003,0,0.00689272,0,0.0262052,0,0.712166,0,0,0,0,0,0,0.25733,0.021142,2.01911e-008,285.003,1.50143
29.4,8379,0,11000.1,285.003,0,0.00693106,0,0.0262054,0,0.712166,0,0,0,0,0,0,0.25733,0.021142,2.01911e-008,285.003,1.50143
29.5,8407.5,0,11000.1,285.003,0,0.00696958,0,0.0262055,0,0.712166,0,0,0,0,0,0,0.25733,0.021142,2.01911e-008,285.003,1.50144
29.6,8436,0,11000.1,285.003,0,0.00700837,0,0.0262057,0,0.712166,0,0,0,0,0,0,0.25733,0.021142,2.01911e-008,285.003,1.50145
29.7,8464.5,0,11000.1,285.003,0,0.00704734,0,0.0262058,0,0.712167,0,0,0,0,0,0,0.25733,0.021142,2.01911e-008,285.003,1.50146
29.8,8493,0,11000.1,285.003,0,0.00708649,0,0.0262059,0,0.712167,0,0,0,0,0,0,0.25733,0.021142,2.01911e-008,285.003,1.50146
29.9,8521.5,0,11000.1,285.003,0,0.0071259,0,0.0262061,0,0.712167,0,0,0,0,0,0,0.25733,0.021142,2.01911e-008,285.003,1.50147
30,8550,0,11000.1,285.003,0,0.00716549,0,0.0262062,0,0.712167,0,0,0,0,0,0,0.25733,0.021142,2.01911e-008,285.003,1.50148
30.1,8578.5,0,11000.1,285.003,0,0.00720526,0,0.0262063,0,0.712167,0,0,0,0,0,0,0.25733,0.021142,2.01911e-008,285.003,1.50149
30.2,8607,0,11000.1,285.003,0,0.0072453,0,0.0262065,0,0.712167,0,0,0,0,0,0,0.25733,0.021142,2.01911e-008,285.003,1.5015
30.3,8635.5,0,11000.1,285.003,0,0.00728552,0,0.0262066,0,0.712167,0,0,0,0,0,0,0.25733,0.021142,2.01911e-008,285.003,1.5015
30.4,8664,0,11000.1,285.003,0,0.00732591,0,0.0262068,0,0.712168,0,0,0,0,0,0,0.25733,0.021142,2.01911e-008,285.003,1.50151
30.5,8692.5,0,11000.1,285.003,0,0.00736658,0,0.0262069,0,0.712168,0,0,0,0,0,0,0.25733,0.021142,2.01911e-008,285.003,1.50152
30.6,8721,0,11000.1,285.003,0,0.00740742,0,0.0262071,0,0.712168,0,0,0,0,0,0,0.25733,0.021142,2.01911e-008,285.003,1.50153
30.7,8749.5,0,11000.1,285.003,0,0.00744844,0,0.0262072,0,0.712168,0,0,0,0,0,0,0.25733,0.021142,2.01911e-008,285.003,1.50154
30.8,8778,0,11000.1,285.003,0,0.00748972,0,0.0262073,0,0.712168,0,0,0,0,0,0,0.25733,0.021142,2.01911e-008,285.003,1.50154
30.9,8806.5,0,11000.1,285.003,0,0.00753119,0,0.0262075,0,0.712168,0,0,0,0,0,0,0.25733,0.021142,2.01911e-008,285.003,1.50155
31,8835,0,11000.1,285.003,0,0.00757283,0,0.0262076,0,0.712169,0,0,0,0,0,0,0.25733,0.021142,2.01911e-008,285.003,1.50156
31.1,8863.5,0,11000.1,285.003,0,0.00761474,0,0.0262078,0,0.712169,0,0,0,0,0,0,0.25733,0.021142,2.01911e-008,285.003,1.50157
31.2,8892,0,11000.1,285.003,0,0.00765683,0,0.0262079,0,0.712169,0,0,0,0,0,0,0.25733,0.021142,2.01911e-008,285.003,1.50158
31.3,8920.5,0,11000.1,285.003,0,0.00769919,0,0.0262081,0,0.712169,0,0,0,0,0,0,0.25733,0.021142,2.01911e-008,285.003,1.50159
31.4,8949,0,11000.1,285.003,0,0.00774172,0,0.0262082,0,0.712169,0,0,0,0,0,0,0.25733,0.021142,2.01911e-008,285.003,1.50159
31.5,8977.5,0,11000.1,285.003,0,0.00778444,0,0.0262084,0,0.712169,0,0,0,0,0,0,0.25733,0.021142,2.01911e-008,285.003,1.5016
31.6,9006,0,11000.1,285.003,0,0.00782742,0,0.0262085,0,0.777868,0,0,0,0,0,0,0.25733,0.021142,2.20537e-008,285.003,1.50161
31.7,9034.5,0,11000.1,285.003,0,0.00787058,0,0.0262087,0,0.777868,0,0,0,0,0,0,0.25733,0.021142,2.20537e-008,285.003,1.50162
31.8,9063,0,11000.1,285.003,0,0.00791391,0,0.0262088,0,0.777868,0,0,0,0,0,0,0.25733,0.021142,2.20537e-008,285.003,1.50163
31.9,9091.5,0,11000.1,285.003,0,0.00795752,0,0.026209,0,0.777868,0,0,0,0,0,0,0.25733,0.021142,2.20537e-008,285.003,1.50164
32,9120,0,11000.1,285.003,0,0.0080013,0,0.0262091,0,0.777868,0,0,0,0,0,0,0.25733,0.021142,2.20537e-008,285.003,1.50164
32.1,9148.5,0,11000.1,285.003,0,0.00804526,0,0.0262093,0,0.71217,0,0,0,0,0,0,0.25733,0.021142,2.01911e-008,285.003,1.50165
32.2,9177,0,11000.1,285.003,0,0.00808949,0,0.0262094,0,0.71217,0,0,0,0,0,0,0.25733,0.021142,2.01911e-008,285.003,1.50166
32.3,9205.5,0,11000.1,285.003,0,0.0081339,0,0.0262096,0,0.71217,0,0,0,0,0,0,0.25733,0.021142,2.01911e-008,285.003,1.50167
32.4,9234,0,11000.1,285.003,0,0.00817849,0,0.0262098,0,0.712171,0,0,0,0,0,0,0.25733,0.021142,2.01911e-008,285.003,1.50168
32.5,9262.5,0,11000.1,285.004,0,0.00822334,0,0.0262099,0,0.712171,0,0,0,0,0,0,0.25733,0.021142,2.01911e-008,285.004,1.50169
32.6,9291,0,11000.1,285.004,0,0.00826837,0,0.0262101,0,0.712171,0,0,0,0,0,0,0.25733,0.021142,2.01911e-008,285.004,1.5017
32.7,9319.5,0,11000.1,285.004,0,0.00831376,0,0.0262102,0,0.646473,0,0,0,0,0,0,0.25733,0.021142,1.83284e-008,285.004,1.50171
32.8,9348,0,11000.1,285.004,0,0.00835924,0,0.0262104,0,0.712171,0,0,0,0,0,0,0.25733,0.021142,2.01911e-008,285.004,1.50172
32.9,9376.5,0,11000.1,285.004,0,0.00840489,0,0.0262106,0,0.712171,0,0,0,0,0,0,0.25733,0.021142,2.01911e-008,285.004,1.50172
33,9405,0,11000.1,285.004,0,0.00845082,0,0.0262107,0,0.712172,0,0,0,0,0,0,0.25733,0.021142,2.01911e-008,285.004,1.50173
33.1,9433.5,0,11000.1,285.004,0,0.00849692,0,0.0262109,0,0.712172,0,0,0,0,0,0,0.25733,0.021142,2.01911e-008,285.004,1.50174
33.2,9462,0,11000.1,285.004,0,0.0085432,0,0.026211,0,0.712172,0,0,0,0,0,0,0.25733,0.021142,2.01911e-008,285.004,1.50175
33.3,9490.5,0,11000.1,285.004,0,0.00858974,0,0.0262112,0,0.712172,0,0,0,0,0,0,0.25733,0.021142,2.01911e-008,285.004,1.50176
33.4,9519,0,11000.1,285.004,0,0.00863647,0,0.0262114,0,0.712172,0,0,0,0,0,0,0.25733,0.021142,2.01911e-008,285.004,1.50177
33.5,9547.5,0,11000.1,285.004,0,0.00868338,0,0.0262115,0,0.712172,0,0,0,0,0,0,0.25733,0.021142,2.01911e-008,285.004,1.50178
33.6,9576,0,11000.1,285.004,0,0.00873055,0,0.0262117,0,0.712172,0,0,0,0,0,0,0.25733,0.021142,2.01911e-008,285.004,1.50179
33.7,9604.5,0,11000.1,285.004,0,0.0087779,0,0.0262119,0,0.712173,0,0,0,0,0,0,0.25733,0.021142,2.01911e-008,285.004,1.5018
33.8,9633,0,11000.1,285.004,0,0.00882543,0,0.026212,0,0.712173,0,0,0,0,0,0,0.25733,0.021142,2.01911e-008,285.004,1.50181
33.9,9661.5,0,11000.1,285.004,0,0.00887322,0,0.0262122,0,0.712173,0,0,0,0,0,0,0.25733,0.021142,2.01911e-008,285.004,1.50182
34,9690,0,11000.1,285.004,0,0.0089212,0,0.0262124,0,0.712173,0,0,0,0,0,0,0.25733,0.021142,2.01911e-008,285.004,1.50183
34.1,9718.5,0,11000.1,285.004,0,0.00896944,0,0.0262125,0,0.712173,0,0,0,0,0,0,0.25733,0.021142,2.01911e-008,285.004,1.50184
34.2,9747,0,11000.1,285.004,0,0.00901786,0,0.0262127,0,0.712173,0,0,0,0,0,0,0.25733,0.021142,2.01911e-008,285.004,1.50185
34.3,9775.5,0,11000.1,285.004,0,0.00906646,0,0.0262129,0,0.712174,0,0,0,0,0,0,0.25733,0.021142,2.01911e-008,285.004,1.50186
34.4,9804,0,11000.1,285.004,0,0.00911532,0,0.026213,0,0.712174,0,0,0,0,0,0,0.25733,0.021142,2.01911e-008,285.004,1.50186
34.5,9832.5,0,11000.1,285.004,0,0.00916437,0,0.0262132,0,0.712174,0,0,0,0,0,0,0.25733,0.021142,2.01911e-008,285.004,1.50187
34.6,9861,0,11000.1,285.004,0,0.00921359,0,0.0262134,0,0.712174,0,0,0,0,0,0,0.25733,0.021142,2.01911e-008,285.004,1.50188
34.7,9889.5,0,11000.1,285.004,0,0.00926308,0,0.0262136,0,0.712174,0,0,0,0,0,0,0.25733,0.021142,2.01911e-008,285.004,1.50189
34.8,9918,0,11000.1,285.004,0,0.00931275,0,0.0262137,0,0.712174,0,0,0,0,0,0,0.25733,0.021142,2.01911e-008,285.004,1.5019
34.9,9946.5,0,11000.1,285.004,0,0.0093626,0,0.0262139,0,0.712174,0,0,0,0,0,0,0.25733,0.021142,2.01911e-008,285.004,1.50191
35,9975,0,11000.1,285.004,0,0.00941271,0,0.0262141,0,0.712175,0,0,0,0,0,0,0.25733,0.021142,2.01911e-008,285.004,1.50192
35.1,10003.5,0,11000.1,285.004,0,0.009463,0,0.0262143,0,0.712175,0,0,0,0,0,0,0.25733,0.021142,2.01911e-008,285.004,1.50193
35.2,10032,0,11000.1,285.004,0,0.00951348,0,0.0262144,0,0.712175,0,0,0,0,0,0,0.25733,0.021142,2.01911e-008,285.004,1.50194
35.3,10060.5,0,11000.1,285.004,0,0.00956421,0,0.0262146,0,0.712175,0,0,0,0,0,0,0.25733,0.021142,2.01911e-008,285.004,1.50195
35.4,10089,0,11000.1,285.004,0,0.00961522,0,0.0262148,0,0.646476,0,0,0,0,0,0,0.25733,0.021142,1.83284e-008,285.004,1.50196
35.5,10117.5,0,11000.1,285.004,0,0.00966649,0,0.026215,0,0.646477,0,0,0,0,0,0,0.25733,0.021142,1.83284e-008,285.004,1.50197
35.6,10146,0,11000.1,285.004,0,0.00971786,0,0.0262152,0,0.712176,0,0,0,0,0,0,0.25733,0.021142,2.01911e-008,285.004,1.50198
35.7,10174.5,0,11000.1,285.004,0,0.0097694,0,0.0262153,0,0.712176,0,0,0,0,0,0,0.25733,0.021142,2.01911e-008,285.004,1.50199
35.8,10203,0,11000.1,285.005,0,0.00982121,0,0.0262155,0,0.712176,0,0,0,0,0,0,0.25733,0.021142,2.01911e-008,285.005,1.502
35.9,10231.5,0,11000.1,285.005,0,0.00987319,0,0.0262157,0,0.712176,0,0,0,0,0,0,0.25733,0.021142,2.01911e-008,285.005,1.50201
36,10260,0,11000.1,285.005,0,0.00992536,0,0.0262159,0,0.712176,0,0,0,0,0,0,0.25733,0.021142,2.01911e-008,285.005,1.50202
36.1,10288.5,0,11000.1,285.005,0,0.00997779,0,0.0262161,0,0.777875,0,0,0,0,0,0,0.25733,0.021142,2.20537e-008,285.005,1.50204
36.2,10317,0,11000.1,285.005,0,0.0100304,0,0.0262163,0,0.712176,0,0,0,0,0,0,0.25733,0.021142,2.01911e-008,285.005,1.50205
36.3,10345.5,0,11000.1,285.005,0,0.0100832,0,0.0262164,0,0.777876,0,0,0,0,0,0,0.25733,0.021142,2.20537e-008,285.005,1.50206
36.4,10374,0,11000.1,285.005,0,0.0101363,0,0.0262166,0,0.777876,0,0,0,0,0,0,0.25733,0.021142,2.20537e-008,285.005,1.50207
36.5,10402.5,0,11000.1,285.005,0,0.0101895,0,0.0262168,0,0.777876,0,0,0,0,0,0,0.25733,0.021142,2.20537e-008,285.005,1.50208
36.6,10431,0,11000.1,285.005,0,0.0102429,0,0.026217,0,0.777876,0,0,0,0,0,0,0.25733,0.021142,2.20537e-008,285.005,1.50209
36.7,10459.5,0,11000.1,285.005,0,0.0102966,0,0.0262172,0,0.777876,0,0,0,0,0,0,0.25733,0.021142,2.20537e-008,285.005,1.5021
36.8,10488,0,11000.1,285.005,0,0.0103504,0,0.0262174,0,0.777876,0,0,0,0,0,0,0.25733,0.021142,2.20537e-008,285.005,1.50211
36.9,10516.5,0,11000.1,285.005,0,0.0104045,0,0.0262176,0,0.712178,0,0,0,0,0,0,0.25733,0.021142,2.01911e-008,285.005,1.50212
37,10545,0,11000.1,285.005,0,0.0104588,0,0.0262178,0,0.712178,0,0,0,0,0,0,0.25733,0.021142,2.01911e-008,285.005,1.50213
37.1,10573.5,0,11000.1,285.005,0,0.0105133,0,0.026218,0,0.712178,0,0,0,0,0,0,0.25733,0.021142,2.01911e-008,285.005,1.50214
37.2,10602,0,11000.1,285.005,0,0.010568,0,0.0262181,0,0.712178,0,0,0,0,0,0,0.25733,0.021142,2.01911e-008,285.005,1.50215
37.3,10630.5,0,11000.1,285.005,0,0.010623,0,0.0262183,0,0.712178,0,0,0,0,0,0,0.25733,0.021142,2.01911e-008,285.005,1.50216
37.4,10659,0,11000.1,285.005,0,0.0106781,0,0.0262185,0,0.712178,0,0,0,0,0,0,0.25733,0.021142,2.01911e-008,285.005,1.50217
37.5,10687.5,0,11000.1,285.005,0,0.0107334,0,0.0262187,0,0.712178,0,0,0,0,0,0,0.25733,0.021142,2.01911e-008,285.005,1.50218
37.6,10716,0,11000.1,285.005,0,0.010789,0,0.0262189,0,0.712179,0,0,0,0,0,0,0.25733,0.021142,2.01911e-008,285.005,1.5022
37.7,10744.5,0,11000.1,285.005,0,0.0108449,0,0.0262191,0,0.64648,0,0,0,0,0,0,0.25733,0.021142,1.83284e-008,285.005,1.50221
37.8,10773,0,11000.1,285.005,0,0.0109009,0,0.0262193,0,0.712179,0,0,0,0,0,0,0.25733,0.021142,2.01911e-008,285.005,1.50222
37.9,10801.5,0,11000.1,285.005,0,0.0109572,0,0.0262195,0,0.64648,0,0,0,0,0,0,0.25733,0.021142,1.83284e-008,285.005,1.50223
38,10830,0,11000.1,285.005,0,0.0110137,0,0.0262197,0,0.64648,0,0,0,0,0,0,0.25733,0.021142,1.83284e-008,285.005,1.50224
38.1,10858.5,0,11000.1,285.005,0,0.0110703,0,0.0262199,0,0.712179,0,0,0,0,0,0,0.25733,0.021142,2.01911e-008,285.005,1.50225
38.2,10887,0,11000.1,285.005,0,0.0111272,0,0.0262201,0,0.64648,0,0,0,0,0,0,0.25733,0.021142,1.83284e-008,285.005,1.50226
38.3,10915.5,0,11000.2,285.005,0,0.0111842,0,0.0262203,0,0.71218,0,0,0,0,0,0,0.25733,0.021142,2.01911e-008,285.005,1.50227
38.4,10944,0,11000.2,285.005,0,0.0112414,0,0.0262205,0,0.71218,0,0,0,0,0,0,0.25733,0.021142,2.01911e-008,285.005,1.50228
38.5,10972.5,0,11000.2,285.005,0,0.0112989,0,0.0262207,0,0.71218,0,0,0,0,0,0,0.25733,0.021142,2.01911e-008,285.005,1.5023
38.6,11001,0,11000.2,285.005,0,0.0113566,0,0.0262209,0,0.71218,0,0,0,0,0,0,0.25733,0.021142,2.01911e-008,285.005,1.50231
38.7,11029.5,0,11000.2,285.005,0,0.0114144,0,0.0262211,0,0.71218,0,0,0,0,0,0,0.25733,0.021142,2.01911e-008,285.005,1.50232
38.8,11058,0,11000.2,285.005,0,0.0114725,0,0.0262213,0,0.71218,0,0,0,0,0,0,0.25733,0.021142,2.01911e-008,285.005,1.50233
38.9,11086.5,0,11000.2,285.005,0,0.0115308,0,0.0262215,0,0.712181,0,0,0,0,0,0,0.25733,0.021142,2.01911e-008,285.005,1.50234
39,11115,0,11000.2,285.005,0,0.0115893,0,0.0262217,0,0.712181,0,0,0,0,0,0,0.25733,0.021142,2.01911e-008,285.005,1.50235
39.1,11143.5,0,11000.2,285.006,0,0.011648,0,0.0262219,0,0.712181,0,0,0,0,0,0,0.25733,0.021142,2.01911e-008,285.006,1.50237
39.2,11172,0,11000.2,285.006,0,0.0117069,0,0.0262221,0,0.712181,0,0,0,0,0,0,0.25733,0.021142,2.01911e-008,285.006,1.50238
39.3,11200.5,0,11000.2,285.006,0,0.011766,0,0.0262223,0,0.712181,0,0,0,0,0,0,0.25733,0.021142,2.01911e-008,285.006,1.50239
39.4,11229,0,11000.2,285.006,0,0.0118253,0,0.0262226,0,0.712181,0,0,0,0,0,0,0.25733,0.021142,2.01911e-008,285.006,1.5024
39.5,11257.5,0,11000.2,285.006,0,0.0118849,0,0.0262228,0,0.712181,0,0,0,0,0,0,0.25733,0.021142,2.01911e-008,285.006,1.50241
39.6,11286,0,11000.2,285.006,0,0.0119447,0,0.026223,0,0.712182,0,0,0,0,0,0,0.25733,0.021142,2.01911e-008,285.006,1.50242
39.7,11314.5,0,11000.2,285.006,0,0.0120046,0,0.0262232,0,0.712182,0,0,0,0,0,0,0.25733,0.021142,2.01911e-008,285.006,1.50244
39.8,11343,0,11000.2,285.006,0,0.0120648,0,0.0262234,0,0.712182,0,0,0,0,0,0,0.25733,0.021142,2.01911e-008,285.006,1.50245
39.9,11371.5,0,11000.2,285.006,0,0.0121251,0,0.0262236,0,0.777882,0,0,0,0,0,0,0.25733,0.021142,2.20537e-008,285.006,1.50246
40,11400,0,11000.2,285.006,0,0.0121858,0,0.0262238,0,0.712182,0,0,0,0,0,0,0.25733,0.021142,2.01911e-008,285.006,1.50247
40.1,11428.5,0,11000.2,285.006,0,0.0122466,0,0.026224,0,0.777882,0,0,0,0,0,0,0.25733,0.021142,2.20537e-008,285.006,1.50248
40.2,11457,0,11000.2,285.006,0,0.0123076,0,0.0262242,0,0.712183,0,0,0,0,0,0,0.25733,0.021142,2.01911e-008,285.006,1.5025
40.3,11485.5,0,11000.2,285.006,0,0.0123688,0,0.0262245,0,0.712183,0,0,0,0,0,0,0.25733,0.021142,2.01911e-008,285.006,1.50251
40.4,11514,0,11000.2,285.006,0,0.0124303,0,0.0262247,0,0.712183,0,0,0,0,0,0,0.25733,0.021142,2.01911e-008,285.006,1.50252
40.5,11542.5,0,11000.2,285.006,0,0.0124919,0,0.0262249,0,0.712183,0,0,0,0,0,0,0.25733,0.021142,2.01911e-008,285.006,1.50253
40.6,11571,0,11000.2,285.006,0,0.0125538,0,0.0262251,0,0.712183,0,0,0,0,0,0,0.25733,0.021142,2.01911e-008,285.006,1.50254
40.7,11599.5,0,11000.2,285.006,0,0.0126159,0,0.0262253,0,0.777883,0,0,0,0,0,0,0.25733,0.021142,2.20537e-008,285.006,1.50256
40.8,11628,0,11000.2,285.006,0,0.0126781,0,0.0262255,0,0.777883,0,0,0,0,0,0,0.25733,0.021142,2.20537e-008,285.006,1.50257
40.9,11656.5,0,11000.2,285.006,0,0.0127406,0,0.0262258,0,0.777883,0,0,0,0,0,0,0.25733,0.021142,2.20537e-008,285.006,1.50258
41,11685,0,11000.2,285.006,0,0.0128033,0,0.026226,0,0.777883,0,0,0,0,0,0,0.25733,0.021142,2.20537e-008,285.006,1.50259
41.1,11713.5,0,11000.2,285.006,0,0.0128662,0,0.0262262,0,0.777884,0,0,0,0,0,0,0.25733,0.021142,2.20537e-008,285.006,1.50261
41.2,11742,0,11000.2,285.006,0,0.0129293,0,0.0262264,0,0.712184,0,0,0,0,0,0,0.25733,0.021142,2.01911e-008,285.006,1.50262
41.3,11770.5,0,11000.2,285.006,0,0.0129926,0,0.0262266,0,0.712184,0,0,0,0,0,0,0.25733,0.021142,2.01911e-008,285.006,1.50263
41.4,11799,0,11000.2,285.006,0,0.0130562,0,0.0262269,0,0.712184,0,0,0,0,0,0,0.25733,0.021142,2.01911e-008,285.006,1.50264
41.5,11827.5,0,11000.2,285.006,0,0.0131199,0,0.0262271,0,0.712185,0,0,0,0,0,0,0.25733,0.021142,2.01911e-008,285.006,1.50266
41.6,11856,0,11000.2,285.006,0,0.0131839,0,0.0262273,0,0.712185,0,0,0,0,0,0,0.25733,0.021142,2.01911e-008,285.006,1.50267
41.7,11884.5,0,11000.2,285.006,0,0.0132481,0,0.0262275,0,0.712185,0,0,0,0,0,0,0.25733,0.021142,2.01911e-008,285.006,1.50268
41.8,11913,0,11000.2,285.006,0,0.0133125,0,0.0262278,0,0.712185,0,0,0,0,0,0,0.25733,0.021142,2.01911e-008,285.006,1.50269
41.9,11941.5,0,11000.2,285.006,0,0.013377,0,0.026228,0,0.712185,0,0,0,0,0,0,0.25733,0.021142,2.01911e-008,285.006,1.50271
42,11970,0,11000.2,285.006,0,0.0134421,0,0.0262282,0,0.646486,0,0,0,0,0,0,0.25733,0.021142,1.83284e-008,285.006,1.50272
42.1,11998.6,0,11000.2,285.007,0,0.0135076,0,0.0262285,0,0.712186,0,0,0,0,0,0,0.25733,0.021142,2.01911e-008,285.007,1.50273
42.2,12027.1,0,11000.2,285.007,0,0.0135734,0,0.0262287,0,0.712186,0,0,0,0,0,0,0.25733,0.021142,2.01911e-008,285.007,1.50275
42.3,12055.6,0,11000.2,285.007,0,0.0136396,0,0.0262289,0,0.777886,0,0,0,0,0,0,0.25733,0.021142,2.20537e-008,285.007,1.50276
42.4,12084.1,0,11000.2,285.007,0,0.0137063,0,0.0262291,0,0.909286,0,0,0,0,0,0,0.25733,0.021142,2.5779e-008,285.007,1.50277
42.5,12112.6,0,11000.2,285.007,0,0.0137733,0,0.0262294,0,1.04069,0,0,0,0,0,0,0.25733,0.021142,2.95043e-008,285.007,1.50278
42.6,12141.1,0,11000.2,285.007,0,0.0138406,0,0.0262296,0,1.17209,0,0,0,0,0,0,0.25733,0.021142,3.32296e-008,285.007,1.5028
42.7,12169.6,0,11000.2,285.007,0,0.0139083,0,0.0262298,0,1.30349,0,0,0,0,0,0,0.25733,0.021142,3.69549e-008,285.007,1.50281
42.8,12198.1,0,11000.2,285.007,0,0.0139763,0,0.0262301,0,1.36919,0,0,0,0,0,0,0.25733,0.021142,3.88175e-008,285.007,1.50282
42.9,12226.6,0,11000.2,285.007,0,0.0140448,0,0.0262303,0,1.43489,0,0,0,0,0,0,0.25733,0.021142,4.06802e-008,285.007,1.50284
43,12255.1,0,11000.2,285.007,0,0.0141136,0,0.0262306,0,1.56629,0,0,0,0,0,0,0.25733,0.021142,4.44055e-008,285.007,1.50285
43.1,12283.6,0,11000.2,285.007,0,0.0141828,0,0.0262308,0,1.69769,0,0,0,0,0,0,0.25733,0.021142,4.81308e-008,285.007,1.50286
43.2,12312.1,0,11000.2,285.007,0,0.0142522,0,0.026231,0,1.76339,0,0,0,0,0,0,0.25733,0.021142,4.99934e-008,285.007,1.50288
43.3,12340.6,0,11000.2,285.007,0,0.0143222,0,0.0262313,0,1.82909,0,0,0,0,0,0,0.25733,0.021142,5.1856e-008,285.007,1.50289
43.4,12369.1,0,11000.2,285.007,0,0.0143925,0,0.0262315,0,1.89479,0,0,0,0,0,0,0.25733,0.021142,5.37187e-008,285.007,1.50291
43.5,12397.6,0,11000.2,285.007,0,0.0144632,0,0.0262318,0,1.89479,0,0,0,0,0,0,0.25733,0.021142,5.37187e-008,285.007,1.50292
43.6,12426.1,0,11000.2,285.007,0,0.0145344,0,0.026232,0,1.96049,0,0,0,0,0,0,0.25733,0.021142,5.55813e-008,285.007,1.50293
43.7,12454.6,0,11000.2,285.008,0,0.014606,0,0.0262323,0,1.9605,0,0,0,0,0,0,0.25733,0.021142,5.55813e-008,285.008,1.50295
43.8,12483.1,0,11000.2,285.008,0,0.0146779,0,0.0262325,0,1.8948,0,0,0,0,0,0,0.25733,0.021142,5.37187e-008,285.008,1.50296
43.9,12511.6,0,11000.2,285.008,0,0.0147504,0,0.0262328,0,1.8948,0,0,0,0,0,0,0.25733,0.021142,5.37187e-008,285.008,1.50298
44,12540.1,0,11000.2,285.008,0,0.0148232,0,0.026233,0,1.8291,0,0,0,0,0,0,0.25733,0.021142,5.1856e-008,285.008,1.50299
44.1,12568.6,0,11000.2,285.008,0,0.0148965,0,0.0262333,0,1.8291,0,0,0,0,0,0,0.25733,0.021142,5.1856e-008,285.008,1.50301
44.2,12597.1,0,11000.2,285.008,0,0.0149703,0,0.0262336,0,1.6977,0,0,0,0,0,0,0.25733,0.021142,4.81308e-008,285.008,1.50302
44.3,12625.6,0,11000.2,285.008,0,0.0150445,0,0.0262338,0,1.632,0,0,0,0,0,0,0.25733,0.021142,4.62681e-008,285.008,1.50303
44.4,12654.1,0,11000.2,285.008,0,0.0151193,0,0.0262341,0,1.5006,0,0,0,0,0,0,0.25733,0.021142,4.25428e-008,285.008,1.50305
44.5,12682.6,0,11000.2,285.008,0,0.0151944,0,0.0262344,0,1.4349,0,0,0,0,0,0,0.25733,0.021142,4.06802e-008,285.008,1.50306
44.6,12711.1,0,11000.2,285.008,0,0.01527,0,0.0262346,0,1.3692,0,0,0,0,0,0,0.25733,0.021142,3.88175e-008,285.008,1.50308
44.7,12739.6,0,11000.2,285.008,0,0.0153462,0,0.0262349,0,1.2378,0,0,0,0,0,0,0.25733,0.021142,3.50922e-008,285.008,1.50309
44.8,12768.1,0,11000.2,285.008,0,0.0154227,0,0.0262352,0,1.2378,0,0,0,0,0,0,0.25733,0.021142,3.50922e-008,285.008,1.50311
44.9,12796.6,0,11000.2,285.008,0,0.0154997,0,0.0262354,0,1.1721,0,0,0,0,0,0,0.25733,0.021142,3.32296e-008,285.008,1.50313
45,12825.1,0,11000.2,285.008,0,0.0155772,0,0.0262357,0,1.1064,0,0,0,0,0,0,0.25733,0.021142,3.13669e-008,285.008,1.50314
45.1,12853.6,0,11000.2,285.008,0,0.0156551,0,0.026236,0,1.1064,0,0,0,0,0,0,0.25733,0.021142,3.13669e-008,285.008,1.50316
45.2,12882.1,0,11000.2,285.008,0,0.0157335,0,0.0262363,0,1.1064,0,0,0,0,0,0,0.25733,0.021142,3.13669e-008,285.008,1.50317
45.3,12910.6,0,11000.2,285.008,0,0.0158122,0,0.0262365,0,1.0407,0,0,0,0,0,0,0.25733,0.021142,2.95043e-008,285.008,1.50319
45.4,12939.1,0,11000.2,285.009,0,0.0158914,0,0.0262368,0,1.0407,0,0,0,0,0,0,0.25733,0.021142,2.95043e-008,285.009,1.5032
45.5,12967.6,0,11000.2,285.009,0,0.015971,0,0.0262371,0,1.1064,0,0,0,0,0,0,0.25733,0.021142,3.13669e-008,285.009,1.50322
45.6,12996.1,0,11000.2,285.009,0,0.0160509,0,0.0262374,0,1.1721,0,0,0,0,0,0,0.25733,0.021142,3.32296e-008,285.009,1.50323
45.7,13024.6,0,11000.2,285.009,0,0.0161313,0,0.0262376,0,1.1721,0,0,0,0,0,0,0.25733,0.021142,3.32296e-008,285.009,1.50325
45.8,13053.1,0,11000.2,285.009,0,0.0162121,0,0.0262379,0,1.1721,0,0,0,0,0,0,0.25733,0.021142,3.32296e-008,285.009,1.50327
45.9,13081.6,0,11000.2,285.009,0,0.0162932,0,0.0262382,0,1.30351,0,0,0,0,0,0,0.25733,0.021142,3.69549e-008,285.009,1.50328
46,13110.1,0,11000.2,285.009,0,0.0163748,0,0.0262385,0,1.30351,0,0,0,0,0,0,0.25733,0.021142,3.69549e-008,285.009,1.5033
46.1,13138.6,0,11000.2,285.009,0,0.0164567,0,0.0262388,0,1.36921,0,0,0,0,0,0,0.25733,0.021142,3.88175e-008,285.009,1.50331
46.2,13167.1,0,11000.3,285.009,0,0.016539,0,0.0262391,0,1.43491,0,0,0,0,0,0,0.25733,0.021142,4.06802e-008,285.009,1.50333
46.3,13195.6,0,11000.3,285.009,0,0.0166217,0,0.0262394,0,1.50061,0,0,0,0,0,0,0.25733,0.021142,4.25428e-008,285.009,1.50335
46.4,13224.1,0,11000.3,285.009,0,0.0167047,0,0.0262396,0,1.56631,0,0,0,0,0,0,0.25733,0.021142,4.44055e-008,285.009,1.50336
46.5,13252.6,0,11000.3,285.009,0,0.0167882,0,0.0262399,0,1.63201,0,0,0,0,0,0,0.25733,0.021142,4.62681e-008,285.009,1.50338
46.6,13281.1,0,11000.3,285.009,0,0.0168721,0,0.0262402,0,1.63201,0,0,0,0,0,0,0.25733,0.021142,4.62681e-008,285.009,1.5034
46.7,13309.6,0,11000.3,285.009,0,0.0169564,0,0.0262405,0,1.63201,0,0,0,0,0,0,0.25733,0.021142,4.62681e-008,285.009,1.50341
46.8,13338.1,0,11000.3,285.009,0,0.0170411,0,0.0262408,0,1.63202,0,0,0,0,0,0,0.25733,0.021142,4.62681e-008,285.009,1.50343
46.9,13366.6,0,11000.3,285.009,0,0.0171262,0,0.0262411,0,1.56632,0,0,0,0,0,0,0.25733,0.021142,4.44055e-008,285.009,1.50345
47,13395.1,0,11000.3,285.01,0,0.0172119,0,0.0262414,0,1.63202,0,0,0,0,0,0,0.25733,0.021142,4.62681e-008,285.01,1.50346
47.1,13423.6,0,11000.3,285.01,0,0.0172978,0,0.0262417,0,1.63202,0,0,0,0,0,0,0.25733,0.021142,4.62681e-008,285.01,1.50348
47.2,13452.1,0,11000.3,285.01,0,0.0173842,0,0.026242,0,1.63202,0,0,0,0,0,0,0.25733,0.021142,4.62681e-008,285.01,1.5035
47.3,13480.6,0,11000.3,285.01,0,0.0174711,0,0.0262423,0,1.63202,0,0,0,0,0,0,0.25733,0.021142,4.62681e-008,285.01,1.50351
47.4,13509.1,0,11000.3,285.01,0,0.0175583,0,0.0262426,0,1.56632,0,0,0,0,0,0,0.25733,0.021142,4.44055e-008,285.01,1.50353
47.5,13537.6,0,11000.3,285.01,0,0.017646,0,0.026243,0,1.50062,0,0,0,0,0,0,0.25733,0.021142,4.25428e-008,285.01,1.50355
47.6,13566.1,0,11000.3,285.01,0,0.0177342,0,0.0262433,0,1.50062,0,0,0,0,0,0,0.25733,0.021142,4.25428e-008,285.01,1.50357
47.7,13594.6,0,11000.3,285.01,0,0.0178229,0,0.0262436,0,1.43492,0,0,0,0,0,0,0.25733,0.021142,4.06802e-008,285.01,1.50358
47.8,13623.1,0,11000.3,285.01,0,0.0179119,0,0.0262439,0,1.43492,0,0,0,0,0,0,0.25733,0.021142,4.06802e-008,285.01,1.5036
47.9,13651.6,0,11000.3,285.01,0,0.0180014,0,0.0262442,0,1.43492,0,0,0,0,0,0,0.25733,0.021142,4.06802e-008,285.01,1.50362
48,13680.1,0,11000.3,285.01,0,0.0180913,0,0.0262445,0,1.36922,0,0,0,0,0,0,0.25733,0.021142,3.88175e-008,285.01,1.50364
48.1,13708.6,0,11000.3,285.01,0,0.0181817,0,0.0262448,0,1.30352,0,0,0,0,0,0,0.25733,0.021142,3.69549e-008,285.01,1.50365
48.2,13737.1,0,11000.3,285.01,0,0.0182724,0,0.0262452,0,1.36922,0,0,0,0,0,0,0.25733,0.021142,3.88175e-008,285.01,1.50367
48.3,13765.6,0,11000.3,285.01,0,0.0183636,0,0.0262455,0,1.30352,0,0,0,0,0,0,0.25733,0.021142,3.69549e-008,285.01,1.50369
48.4,13794.1,0,11000.3,285.01,0,0.0184553,0,0.0262458,0,1.30352,0,0,0,0,0,0,0.25733,0.021142,3.69549e-008,285.01,1.50371
48.5,13822.6,0,11000.3,285.01,0,0.0185474,0,0.0262461,0,1.30352,0,0,0,0,0,0,0.25733,0.021142,3.69549e-008,285.01,1.50373
48.6,13851.1,0,11000.3,285.01,0,0.0186398,0,0.0262464,0,1.30352,0,0,0,0,0,0,0.25733,0.021142,3.69549e-008,285.01,1.50375
48.7,13879.6,0,11000.3,285.011,0,0.0187327,0,0.0262468,0,1.36922,0,0,0,0,0,0,0.25733,0.021142,3.88175e-008,285.011,1.50376
48.8,13908.1,0,11000.3,285.011,0,0.018826,0,0.0262471,0,1.36922,0,0,0,0,0,0,0.25733,0.021142,3.88175e-008,285.011,1.50378
48.9,13936.6,0,11000.3,285.011,0,0.0189198,0,0.0262474,0,1.30352,0,0,0,0,0,0,0.25733,0.021142,3.69549e-008,285.011,1.5038
49,13965.1,0,11000.3,285.011,0,0.0190138,0,0.0262478,0,1.36922,0,0,0,0,0,0,0.25733,0.021142,3.88175e-008,285.011,1.50382
49.1,13993.6,0,11000.3,285.011,0,0.0191084,0,0.0262481,0,1.36922,0,0,0,0,0,0,0.25733,0.021142,3.88175e-008,285.011,1.50384
49.2,14022.1,0,11000.3,285.011,0,0.0192032,0,0.0262484,0,1.36923,0,0,0,0,0,0,0.25733,0.021142,3.88175e-008,285.011,1.50386
49.3,14050.6,0,11000.3,285.011,0,0.0192986,0,0.0262488,0,1.36923,0,0,0,0,0,0,0.25733,0.021142,3.88175e-008,285.011,1.50388
49.4,14079.1,0,11000.3,285.011,0,0.0193943,0,0.0262491,0,1.36923,0,0,0,0,0,0,0.25733,0.021142,3.88175e-008,285.011,1.50389
49.5,14107.6,0,11000.3,285.011,0,0.0194905,0,0.0262494,0,1.43493,0,0,0,0,0,0,0.25733,0.021142,4.06802e-008,285.011,1.50391
49.6,14136.1,0,11000.3,285.011,0,0.0195871,0,0.0262498,0,1.43493,0,0,0,0,0,0,0.25733,0.021142,4.06802e-008,285.011,1.50393
49.7,14164.6,0,11000.3,285.011,0,0.0196841,0,0.0262501,0,1.43493,0,0,0,0,0,0,0.25733,0.021142,4.06802e-008,285.011,1.50395
49.8,14193.1,0,11000.3,285.011,0,0.0197816,0,0.0262504,0,1.50063,0,0,0,0,0,0,0.25733,0.021142,4.25428e-008,285.011,1.50397
49.9,14221.6,0,11000.3,285.011,0,0.0198794,0,0.0262508,0,1.50063,0,0,0,0,0,0,0.25733,0.021142,4.25428e-008,285.011,1.50399
50,14250.1,0,11000.3,285.011,0,0.0199776,0,0.0262511,0,1.56634,0,0,0,0,0,0,0.25733,0.021142,4.44055e-008,285.011,1.50401
50.1,14278.6,0,11000.3,285.011,0,0.0200763,0,0.0262515,0,1.50063,0,0,0,0,0,0,0.25733,0.021142,4.25428e-008,285.011,1.50403
50.2,14307.1,0,11000.3,285.011,0,0.0201755,0,0.0262518,0,1.50064,0,0,0,0,0,0,0.25733,0.021142,4.25428e-008,285.011,1.50405
50.3,14335.6,0,11000.3,285.012,0,0.020275,0,0.0262522,0,1.50064,0,0,0,0,0,0,0.25733,0.021142,4.25428e-008,285.012,1.50407
